$GNRMC,221747.00,A,4006.88542,N,08813.63980,W,0.043,,181022,,,D,V*0E

$GNVTG,,T,,M,0.043,N,0.080,K,D*37

$GNGGA,221747.00,4006.88542,N,08813.63980,W,2,12,0.98,233.7,M,-33.2,M,,0000*79

$GNGSA,A,3,32,03,31,22,26,04,16,46,44,,,,2.29,0.98,2.07,1*09

$GNGSA,A,3,,,,,,,,,,,,,2.29,0.98,2.07,2*0F

$GNGSA,A,3,24,03,05,,,,,,,,,,2.29,0.98,2.07,3*0E

$GNGSA,A,3,21,,,,,,,,,,,,2.29,0.98,2.07,4*0A

$GPGSV,3,1,11,03,53,257,30,04,37,309,37,09,03,305,,16,48,181,37,1*65

$GPGSV,3,2,11,22,40,109,34,26,72,130,33,29,12,058,21,31,46,054,33,1*6A

$GPGSV,3,3,11,32,12,120,24,44,35,220,37,46,28,233,33,1*5B

$GLGSV,1,1,00,1*78

$GNRMC,221748.00,A,4006.88539,N,08813.63974,W,0.028,,181022,,,D,V*0B

$GNRMC,221749.00,A,4006.88534,N,08813.63966,W,0.089,,181022,,,D,V*0F

$GNVTG,,T,,M,0.089,N,0.164,K,D*3A

$GNGGA,221749.00,4006.88534,N,08813.63966,W,2,12,0.91,233.6,M,-33.2,M,,0000*76

$GNGSA,A,3,32,03,31,22,26,04,16,46,44,,,,1.69,0.91,1.42,1*05

$GNGSA,A,3,,,,,,,,,,,,,1.69,0.91,1.42,2*03

$GNGSA,A,3,24,03,05,,,,,,,,,,1.69,0.91,1.42,3*02

$GNRMC,221750.00,A,4006.88530,N,08813.63959,W,0.052,,181022,,,D,V*09

$GNVTG,,T,,M,0.052,N,0.097,K,D*31

$GNGGA,221750.00,4006.88530,N,08813.63959,W,2,12,0.91,233.6,M,-33.2,M,,0000*76

$GNGSA,A,3,32,03,31,22,26,04,16,46,44,,,,1.69,0.91,1.42,1*05

$GNGSA,A,3,,,,,,,,,,,,,1.69,0.91,1.42,2*03

$GNGSA,A,3,24,03,05,,,,,,,,,,1.69,0.91,1.42,3*02

$GNRMC,221751.00,A,4006.88528,N,08813.63953,W,0.025,,181022,,,D,V*0B

$GNVTG,,T,,M,0.025,N,0.047,K,D*3C

$GNGGA,221751.00,4006.88528,N,08813.63953,W,2,12,0.91,233.5,M,-33.2,M,,0000*77

$GNGSA,A,3,32,03,31,22,26,04,16,46,44,,,,1.69,0.91,1.42,1*05

$GNGSA,A,3,,,,,,,,,,,,,1.69,0.91,1.42,2*03

$GNGSA,A,3,24,03,05,,,,,,,,,,1.69,0.91,1.42,3*02

$GNGSA,A,3,21,,,,,,,,,,,,1.69,0.91,1.42,4*06

$GNRMC,221752.00,A,4006.88525,N,08813.63950,W,0.088,,181022,,,D,V*01

$GNVTG,,T,,M,0.088,N,0.162,K,D*3D

$GNGGA,221752.00,4006.88525,N,08813.63950,W,2,12,0.91,233.6,M,-33.2,M,,0000*79

$GNGSA,A,3,32,03,31,22,26,04,16,46,44,,,,1.69,0.91,1.42,1*05

$GNRMC,221753.00,A,4006.88523,N,08813.63949,W,0.040,,181022,,,D,V*0A

$GNVTG,,T,,M,0.040,N,0.074,K,D*3F

$GNGGA,221753.00,4006.88523,N,08813.63949,W,2,12,0.91,233.6,M,-33.2,M,,0000*76

$GNGSA,A,3,32,03,31,22,26,04,16,46,44,,,,1.69,0.91,1.42,1*05

$GNGSA,A,3,,,,,,,,,,,,,1.69,0.91,1.42,2*03

$GNGSA,A,3,24,03,05,,,,,,,,,,1.69,0.91,1.42,3*02

$GNRMC,221754.00,A,4006.88521,N,08813.63947,W,0.236,,181022,,,D,V*02

$GNVTG,,T,,M,0.236,N,0.436,K,D*3E

$GNGGA,221754.00,4006.88521,N,08813.63947,W,2,12,0.91,233.6,M,-33.2,M,,0000*7D

$GNGSA,A,3,32,03,31,22,26,04,16,46,44,,,,1.69,0.91,1.42,1*05

$GNGSA,A,3,,,,,,,,,,,,,1.69,0.91,1.42,2*03

$GNGSA,A,3,24,03,05,,,,,,,,,,1.69,0.91,1.42,3*02

$GNGSA,A,3,21,,,,,,,,,,,,1.69,0.91,1.42,4*06

$GNRMC,221755.00,A,4006.88522,N,08813.63941,W,0.062,,181022,,,D,V*05

$GNVTG,,T,,M,0.062,N,0.115,K,D*39

$GNGGA,221755.00,4006.88522,N,08813.63941,W,2,12,0.91,233.3,M,-33.2,M,,0000*7C

$GNGSA,A,3,32,03,31,22,26,04,16,46,44,,,,1.69,0.91,1.42,1*05

$GNGSA,A,3,,,,,,,,,,,,,1.69,0.91,1.42,2*03

$GNGSA,A,3,24,03,05,,,,,,,,,,1.69,0.91,1.42,3*02

$GNGSA,A,3,21,,,,,,,,,,,,1.69,0.91,1.42,4*06

$GPGSV,3,1,11,03,53,257,31,04,37,309,38,09,03,305,,16,48,181,38,1*64

$GPGSV,3,2,11,22,40,109,34,26,72,130,36,29,12,058,19,31,46,054,37,1*60

$GPGSV,3,3,11,32,12,120,26,44,35,220,38,46,28,233,34,1*51

$GNRMC,221756.00,A,4006.88522,N,08813.63940,W,0.064,,181022,,,D,V*01

$GNVTG,,T,,M,0.064,N,0.119,K,D*33

$GNGGA,221756.00,4006.88522,N,08813.63940,W,2,12,0.91,233.2,M,-33.2,M,,0000*7F

$GNRMC,221757.00,A,4006.88520,N,08813.63939,W,0.036,,181022,,,D,V*0B

$GNVTG,,T,,M,0.036,N,0.067,K,D*3C

$GNGGA,221757.00,4006.88520,N,08813.63939,W,2,12,0.91,233.2,M,-33.2,M,,0000*72

$GNGSA,A,3,32,03,31,22,26,04,16,46,44,,,,1.69,0.91,1.42,1*05

$GNGSA,A,3,,,,,,,,,,,,,1.69,0.91,1.42,2*03

$GNGSA,A,3,24,03,05,,,,,,,,,,1.69,0.91,1.42,3*02

$GNGSA,A,3,21,,,,,,,,,,,,1.69,0.91,1.42,4*06

$GNRMC,221758.00,A,4006.88519,N,08813.63937,W,0.044,,181022,,,D,V*05

$GNVTG,,T,,M,0.044,N,0.082,K,D*32

$GNGGA,221758.00,4006.88519,N,08813.63937,W,2,12,0.91,233.3,M,-33.2,M,,0000*78

$GNGSA,A,3,32,03,31,22,26,04,16,46,44,,,,1.69,0.91,1.42,1*05

$GNGSA,A,3,,,,,,,,,,,,,1.69,0.91,1.42,2*03

$GNRMC,221759.00,A,4006.88519,N,08813.63936,W,0.056,,181022,,,D,V*06

$GNVTG,,T,,M,0.056,N,0.103,K,D*39

$GNGGA,221759.00,4006.88519,N,08813.63936,W,2,12,0.91,233.3,M,-33.2,M,,0000*78

$GNGSA,A,3,32,03,31,22,26,04,16,46,44,,,,1.69,0.91,1.42,1*05

$GNGSA,A,3,,,,,,,,,,,,,1.69,0.91,1.42,2*03

$GNGSA,A,3,24,03,05,,,,,,,,,,1.69,0.91,1.42,3*02

$GNGSA,A,3,21,,,,,,,,,,,,1.69,0.91,1.42,4*06

$GPGSV,3,1,11,03,53,257,30,04,37,309,38,09,03,305,,16,48,181,39,1*64

$GPGSV,3,2,11,22,40,109,33,26,72,130,36,29,12,058,15,31,46,054,36,1*6A

$GPGSV,3,3,11,32,12,120,23,44,35,220,37,46,28,233,33,1*5C

$GLGSV,1,1,00,1*78

$GAGSV,1,1,03,03,52,312,34,05,70,112,32,24,56,059,30,7*48

$GNRMC,221800.00,A,4006.88519,N,08813.63936,W,0.070,,181022,,,D,V*01

$GNVTG,,T,,M,0.070,N,0.129,K,D*35

$GNGGA,221800.00,4006.88519,N,08813.63936,W,2,12,0.91,233.2,M,-33.2,M,,0000*7A

$GNGSA,A,3,32,03,31,22,26,04,16,46,44,,,,1.69,0.91,1.42,1*05

$GNGSA,A,3,,,,,,,,,,,,,1.69,0.91,1.42,2*03

$GNGSA,A,3,24,03,05,,,,,,,,,,1.69,0.91,1.42,3*02

$GNGSA,A,3,21,,,,,,,,,,,,1.69,0.91,1.42,4*06

$GPGSV,3,1,11,03,53,257,30,04,37,309,38,09,03,305,,16,48,181,39,1*64

$GPGSV,3,2,11,22,40,109,32,26,72,130,35,29,12,058,15,31,46,054,36,1*68

$GPGSV,3,3,11,32,12,120,21,44,35,220,37,46,28,233,33,1*5E

$GNRMC,221801.00,A,4006.88519,N,08813.63937,W,0.071,,181022,,,D,V*00

$GNRMC,221802.00,A,4006.88521,N,08813.63937,W,0.075,,181022,,,D,V*0C

$GNVTG,,T,,M,0.075,N,0.139,K,D*31

$GNGGA,221802.00,4006.88521,N,08813.63937,W,2,12,0.98,233.3,M,-33.2,M,,0000*7A

$GNRMC,221803.00,A,4006.88523,N,08813.63938,W,0.008,,181022,,,D,V*0A

$GNVTG,,T,,M,0.008,N,0.016,K,D*37

$GNGGA,221803.00,4006.88523,N,08813.63938,W,2,12,0.98,233.4,M,-33.2,M,,0000*71

$GNRMC,221804.00,A,4006.88524,N,08813.63938,W,0.082,,181022,,,D,V*08

$GNVTG,,T,,M,0.082,N,0.152,K,D*34

$GNGGA,221804.00,4006.88524,N,08813.63938,W,2,12,0.98,233.5,M,-33.2,M,,0000*70

$GNGSA,A,3,03,31,22,26,04,16,46,44,,,,,2.29,0.98,2.07,1*08

$GNGSA,A,3,,,,,,,,,,,,,2.29,0.98,2.07,2*0F

$GNGSA,A,3,24,03,05,,,,,,,,,,2.29,0.98,2.07,3*0E

$GNGSA,A,3,21,,,,,,,,,,,,2.29,0.98,2.07,4*0A

$GPGSV,3,1,11,03,53,257,27,04,37,309,34,09,03,305,,16,48,181,39,1*6E

$GPGSV,3,2,11,22,40,109,29,26,72,130,35,29,12,058,20,31,46,054,34,1*66

$GPGSV,3,3,11,32,12,120,,44,35,220,38,46,28,233,34,1*55

$GLGSV,1,1,00,1*78

$GAGSV,1,1,03,03,52,312,35,05,70,112,32,24,56,059,31,7*48

$GBGSV,1,1,02,21,74,224,31,26,,,30,1*45

$GNRMC,221805.00,A,4006.88527,N,08813.63939,W,0.096,,181022,,,D,V*0E

$GNVTG,,T,,M,0.096,N,0.177,K,D*36

$GNRMC,221806.00,A,4006.88529,N,08813.63941,W,0.043,,181022,,,D,V*04

$GNVTG,,T,,M,0.043,N,0.079,K,D*31

$GNGGA,221806.00,4006.88529,N,08813.63941,W,2,12,0.98,233.5,M,-33.2,M,,0000*71

$GNGSA,A,3,03,31,22,26,04,16,46,44,,,,,2.29,0.98,2.07,1*08

$GNGSA,A,3,,,,,,,,,,,,,2.29,0.98,2.07,2*0F

$GNGSA,A,3,24,03,05,,,,,,,,,,2.29,0.98,2.07,3*0E

$GNGSA,A,3,21,,,,,,,,,,,,2.29,0.98,2.07,4*0A

$GPGSV,3,1,11,03,53,257,30,04,37,309,38,09,03,305,,16,48,181,39,1*64

$GPGSV,3,2,11,22,40,109,29,26,72,130,36,29,12,058,19,31,46,054,29,1*63

$GPGSV,3,3,11,32,12,120,23,44,35,220,37,46,28,233,33,1*5C

$GLGSV,1,1,00,1*78

$GNRMC,221807.00,A,4006.88532,N,08813.63941,W,0.099,,181022,,,D,V*08

$GNVTG,,T,,M,0.099,N,0.184,K,D*35

$GNGGA,221807.00,4006.88532,N,08813.63941,W,2,12,0.91,233.5,M,-33.2,M,,0000*73

$GNGSA,A,3,32,03,31,22,26,04,16,46,44,,,,1.69,0.91,1.42,1*05

$GNGSA,A,3,,,,,,,,,,,,,1.69,0.91,1.42,2*03

$GNGSA,A,3,24,03,05,,,,,,,,,,1.69,0.91,1.42,3*02

$GNGSA,A,3,21,,,,,,,,,,,,1.69,0.91,1.42,4*06

$GPGSV,3,1,11,03,53,257,30,04,37,309,38,09,03,305,,16,48,181,38,1*65

$GPGSV,3,2,11,22,40,109,29,26,72,130,36,29,12,058,19,31,46,054,29,1*63

$GPGSV,3,3,11,32,12,120,24,44,35,220,37,46,28,233,34,1*5C

$GLGSV,1,1,00,1*78

$GNRMC,221808.00,A,4006.88536,N,08813.63939,W,0.097,,181022,,,D,V*02

$GNVTG,,T,,M,0.097,N,0.179,K,D*39

$GNGGA,221808.00,4006.88536,N,08813.63939,W,2,12,0.91,233.4,M,-33.2,M,,0000*76

$GNGSA,A,3,32,03,31,22,26,04,16,46,44,,,,1.69,0.91,1.42,1*05

$GNGSA,A,3,,,,,,,,,,,,,1.69,0.91,1.42,2*03

$GNGSA,A,3,24,03,05,,,,,,,,,,1.69,0.91,1.42,3*02

$GNGSA,A,3,21,,,,,,,,,,,,1.69,0.91,1.42,4*06

$GPGSV,3,1,11,03,53,257,30,04,37,309,38,09,03,305,,16,48,181,38,1*65

$GPGSV,3,2,11,22,40,109,29,26,72,130,36,29,12,058,20,31,46,054,30,1*61

$GPGSV,3,3,11,32,12,120,25,44,35,220,38,46,28,233,33,1*55

$GLGSV,1,1,00,1*78

$GAGSV,1,1,03,03,52,312,33,05,70,112,33,24,56,059,33,7*4D

$GNRMC,221809.00,A,4006.88539,N,08813.63941,W,0.045,,181022,,,D,V*0C

$GNVTG,,T,,M,0.045,N,0.084,K,D*35

$GNGGA,221809.00,4006.88539,N,08813.63941,W,2,12,0.89,233.4,M,-33.2,M,,0000*7E

$GNGSA,A,3,32,03,31,22,26,04,16,46,44,,,,1.68,0.89,1.42,1*0D

$GNGSA,A,3,,,,,,,,,,,,,1.68,0.89,1.42,2*0B

$GNGSA,A,3,24,03,05,,,,,,,,,,1.68,0.89,1.42,3*0A

$GNRMC,221810.00,A,4006.88539,N,08813.63942,W,0.057,,181022,,,D,V*04

$GNVTG,,T,,M,0.057,N,0.106,K,D*3D

$GNGGA,221810.00,4006.88539,N,08813.63942,W,2,12,0.96,233.4,M,-33.2,M,,0000*7B

$GNGSA,A,3,32,03,31,22,26,04,16,46,44,,,,2.28,0.96,2.07,1*06

$GNGSA,A,3,,,,,,,,,,,,,2.28,0.96,2.07,2*00

$GNRMC,221811.00,A,4006.88539,N,08813.63942,W,0.086,,181022,,,D,V*09

$GNVTG,,T,,M,0.086,N,0.158,K,D*3A

$GNGGA,221811.00,4006.88539,N,08813.63942,W,2,12,0.96,233.4,M,-33.2,M,,0000*7A

$GNGSA,A,3,32,03,31,22,26,04,16,46,44,,,,2.28,0.96,2.07,1*06

$GNGSA,A,3,,,,,,,,,,,,,2.28,0.96,2.07,2*00

$GNGSA,A,3,24,03,05,,,,,,,,,,2.28,0.96,2.07,3*01

$GNRMC,221812.00,A,4006.88539,N,08813.63941,W,0.061,,181022,,,D,V*00

$GNVTG,,T,,M,0.061,N,0.113,K,D*3C

$GNGGA,221812.00,4006.88539,N,08813.63941,W,2,12,0.96,233.4,M,-33.2,M,,0000*7A

$GNGSA,A,3,32,03,31,22,26,04,16,46,44,,,,2.28,0.96,2.07,1*06

$GNGSA,A,3,,,,,,,,,,,,,2.28,0.96,2.07,2*00

$GNGSA,A,3,24,03,05,,,,,,,,,,2.28,0.96,2.07,3*01

$GNGSA,A,3,21,26,,,,,,,,,,,2.28,0.96,2.07,4*01

$GPGSV,3,1,11,03,53,256,29,04,37,309,37,09,03,305,,16,48,181,37,1*6C

$GPGSV,3,2,11,22,40,109,31,26,72,130,34,29,12,058,20,31,46,054,32,1*68

$GPGSV,3,3,11,32,12,120,26,44,35,220,37,46,28,233,33,1*59

$GLGSV,1,1,00,1*78

$GAGSV,1,1,03,03,52,312,34,05,70,112,32,24,56,059,31,7*49

$GNRMC,221813.00,A,4006.88540,N,08813.63941,W,0.040,,181022,,,D,V*0C

$GNVTG,,T,,M,0.040,N,0.073,K,D*38

$GNGGA,221813.00,4006.88540,N,08813.63941,W,2,12,0.96,233.4,M,-33.2,M,,0000*75

$GNGSA,A,3,32,03,31,22,26,04,16,46,44,,,,2.28,0.96,2.07,1*06

$GNRMC,221814.00,A,4006.88541,N,08813.63954,W,0.042,,181022,,,D,V*0C

$GNVTG,,T,,M,0.042,N,0.077,K,D*3E

$GNRMC,221815.00,A,4006.88542,N,08813.63965,W,0.034,,181022,,,D,V*0D

$GNVTG,,T,,M,0.034,N,0.064,K,D*3D

$GNRMC,221816.00,A,4006.88545,N,08813.63976,W,0.047,,181022,,,D,V*0F

$GNVTG,,T,,M,0.047,N,0.087,K,D*34

$GNGGA,221816.00,4006.88545,N,08813.63976,W,2,12,0.89,235.0,M,-33.2,M,,0000*7D

$GNGSA,A,3,32,03,31,22,26,04,16,46,44,,,,1.68,0.89,1.42,1*0D

$GNGSA,A,3,,,,,,,,,,,,,1.68,0.89,1.42,2*0B

$GNGSA,A,3,24,03,05,,,,,,,,,,1.68,0.89,1.42,3*0A

$GNGSA,A,3,21,26,,,,,,,,,,,1.68,0.89,1.42,4*0A

$GNRMC,221817.00,A,4006.88548,N,08813.63987,W,0.100,,181022,,,D,V*0F

$GNVTG,,T,,M,0.100,N,0.185,K,D*35

$GNGGA,221817.00,4006.88548,N,08813.63987,W,2,12,0.89,235.5,M,-33.2,M,,0000*7A

$GNGSA,A,3,32,03,31,22,26,04,16,46,44,,,,1.68,0.89,1.42,1*0D

$GNGSA,A,3,,,,,,,,,,,,,1.68,0.89,1.42,2*0B

$GNGSA,A,3,24,03,05,,,,,,,,,,1.68,0.89,1.42,3*0A

$GNGSA,A,3,21,26,,,,,,,,,,,1.68,0.89,1.42,4*0A

$GPGSV,3,1,11,03,53,256,27,04,37,309,38,09,03,305,,16,48,181,37,1*6D

$GPGSV,3,2,11,22,40,109,31,26,72,130,33,29,12,058,23,31,46,054,33,1*6D

$GPGSV,3,3,11,32,12,120,26,44,35,220,38,46,28,233,33,1*56

$GLGSV,1,1,00,1*78

$GAGSV,1,1,03,03,52,312,34,05,70,112,31,24,56,059,31,7*4A

$GBGSV,1,1,02,21,74,224,31,26,45,243,26,1*76

$GNGLL,4006.88548,N,08813.63987,W,221817.00,A,D*65

$GNRMC,221818.00,A,4006.88551,N,08813.63996,W,0.078,,181022,,,D,V*06

$GNVTG,,T,,M,0.078,N,0.144,K,D*36

$GNGGA,221818.00,4006.88551,N,08813.63996,W,2,12,0.89,236.0,M,-33.2,M,,0000*7B

$GNGSA,A,3,32,03,31,22,26,04,16,46,44,,,,1.68,0.89,1.42,1*0D

$GNGSA,A,3,,,,,,,,,,,,,1.68,0.89,1.42,2*0B

$GNGSA,A,3,24,03,05,,,,,,,,,,1.68,0.89,1.42,3*0A

$GNGSA,A,3,21,26,,,,,,,,,,,1.68,0.89,1.42,4*0A

$GNRMC,221819.00,A,4006.88552,N,08813.63994,W,0.061,,181022,,,D,V*0E

$GNVTG,,T,,M,0.061,N,0.112,K,D*3D

$GNGGA,221819.00,4006.88552,N,08813.63994,W,2,12,0.96,235.9,M,-33.2,M,,0000*7F

$GNGSA,A,3,32,03,31,22,26,04,16,46,44,,,,2.28,0.96,2.06,1*07

$GNGSA,A,3,,,,,,,,,,,,,2.28,0.96,2.06,2*01

$GNGSA,A,3,24,03,05,,,,,,,,,,2.28,0.96,2.06,3*00

$GNGSA,A,3,21,26,,,,,,,,,,,2.28,0.96,2.06,4*00

$GPGSV,3,1,11,03,53,256,32,04,37,309,37,09,03,305,,16,48,181,38,1*69

$GPGSV,3,2,11,22,40,109,31,26,72,130,34,29,12,058,23,31,46,054,34,1*6D

$GPGSV,3,3,11,32,12,120,26,44,35,220,38,46,28,233,32,1*57

$GLGSV,1,1,00,1*78

$GNRMC,221820.00,A,4006.88553,N,08813.63992,W,0.042,,181022,,,D,V*02

$GNVTG,,T,,M,0.042,N,0.079,K,D*30

$GNGGA,221820.00,4006.88553,N,08813.63992,W,2,12,0.96,235.8,M,-33.2,M,,0000*73

$GNGSA,A,3,32,03,31,22,26,04,16,46,44,,,,2.28,0.96,2.06,1*07

$GNGSA,A,3,,,,,,,,,,,,,2.28,0.96,2.06,2*01

$GNGSA,A,3,24,03,05,,,,,,,,,,2.28,0.96,2.06,3*00

$GNGSA,A,3,21,26,,,,,,,,,,,2.28,0.96,2.06,4*00

$GPGSV,3,1,11,03,53,256,32,04,37,309,37,09,03,305,,16,48,181,38,1*69

$GNRMC,221821.00,A,4006.88555,N,08813.63990,W,0.069,,181022,,,D,V*0E

$GNRMC,221822.00,A,4006.88555,N,08813.63993,W,0.067,,181022,,,D,V*00

$GNVTG,,T,,M,0.067,N,0.124,K,D*3E

$GNRMC,221823.00,A,4006.88555,N,08813.63992,W,0.046,,181022,,,D,V*03

$GNVTG,,T,,M,0.046,N,0.085,K,D*37

$GNRMC,221824.00,A,4006.88554,N,08813.63990,W,0.088,,181022,,,D,V*05

$GNVTG,,T,,M,0.088,N,0.163,K,D*3C

$GNRMC,221825.00,A,4006.88555,N,08813.63990,W,0.037,,181022,,,D,V*01

$GNVTG,,T,,M,0.037,N,0.069,K,D*33

$GNRMC,221826.00,A,4006.88556,N,08813.63989,W,0.019,,181022,,,D,V*05

$GNVTG,,T,,M,0.019,N,0.035,K,D*36

$GNGGA,221826.00,4006.88556,N,08813.63989,W,2,12,0.96,236.1,M,-33.2,M,,0000*70

$GNGSA,A,3,32,03,31,22,26,04,16,46,44,,,,2.28,0.96,2.06,1*07

$GNGSA,A,3,,,,,,,,,,,,,2.28,0.96,2.06,2*01

$GNRMC,221827.00,A,4006.88558,N,08813.63989,W,0.042,,181022,,,D,V*04

$GNVTG,,T,,M,0.042,N,0.078,K,D*31

$GNGGA,221827.00,4006.88558,N,08813.63989,W,2,12,0.96,236.1,M,-33.2,M,,0000*7F

$GNGSA,A,3,32,03,31,22,26,04,16,46,44,,,,2.28,0.96,2.06,1*07

$GNGSA,A,3,,,,,,,,,,,,,2.28,0.96,2.06,2*01

$GNGSA,A,3,24,03,05,,,,,,,,,,2.28,0.96,2.06,3*00

$GNGSA,A,3,21,26,,,,,,,,,,,2.28,0.96,2.06,4*00

$GNRMC,221828.00,A,4006.88560,N,08813.63989,W,0.047,,181022,,,D,V*05

$GNVTG,,T,,M,0.047,N,0.088,K,D*3B

$GNGGA,221828.00,4006.88560,N,08813.63989,W,2,12,0.96,236.2,M,-33.2,M,,0000*78

$GNGSA,A,3,32,03,31,22,26,04,16,46,44,,,,2.28,0.96,2.06,1*07

$GNGSA,A,3,,,,,,,,,,,,,2.28,0.96,2.06,2*01

$GNGSA,A,3,24,03,05,,,,,,,,,,2.28,0.96,2.06,3*00

$GNGSA,A,3,21,26,,,,,,,,,,,2.28,0.96,2.06,4*00

$GPGSV,3,1,11,03,53,256,33,04,37,309,37,09,03,305,,16,48,181,37,1*67

$GNRMC,221829.00,A,4006.88562,N,08813.63989,W,0.057,,181022,,,D,V*07

$GNVTG,,T,,M,0.057,N,0.106,K,D*3D

$GNGGA,221829.00,4006.88562,N,08813.63989,W,2,12,0.96,236.1,M,-33.2,M,,0000*78

$GNGSA,A,3,32,03,31,22,26,04,16,46,44,,,,2.28,0.96,2.06,1*07

$GNGSA,A,3,,,,,,,,,,,,,2.28,0.96,2.06,2*01

$GNGSA,A,3,24,03,05,,,,,,,,,,2.28,0.96,2.06,3*00

$GNRMC,221830.00,A,4006.88567,N,08813.63989,W,0.262,,181022,,,D,V*0E

$GNVTG,,T,,M,0.262,N,0.486,K,D*34

$GNGGA,221830.00,4006.88567,N,08813.63989,W,2,12,0.96,235.9,M,-33.2,M,,0000*7E

$GNRMC,221831.00,A,4006.88572,N,08813.63991,W,0.039,,181022,,,D,V*0E

$GNVTG,,T,,M,0.039,N,0.072,K,D*37

$GNGGA,221831.00,4006.88572,N,08813.63991,W,2,12,0.96,235.7,M,-33.2,M,,0000*7C

$GNGSA,A,3,32,03,31,22,26,04,16,46,44,,,,2.28,0.96,2.06,1*07

$GNRMC,221832.00,A,4006.88577,N,08813.63987,W,0.336,,181022,,,D,V*03

$GNVTG,,T,,M,0.336,N,0.623,K,D*39

$GNGGA,221832.00,4006.88577,N,08813.63987,W,2,12,0.96,235.6,M,-33.2,M,,0000*7C

$GNGSA,A,3,32,03,31,22,26,04,16,46,44,,,,2.28,0.96,2.06,1*07

$GNGSA,A,3,,,,,,,,,,,,,2.28,0.96,2.06,2*01

$GNGSA,A,3,24,03,05,,,,,,,,,,2.28,0.96,2.06,3*00

$GNGSA,A,3,21,26,,,,,,,,,,,2.28,0.96,2.06,4*00

$GPGSV,3,1,11,03,53,256,32,04,37,309,30,09,03,305,,16,48,181,32,1*64

$GNRMC,221833.00,A,4006.88582,N,08813.63983,W,0.028,,181022,,,D,V*00

$GNVTG,,T,,M,0.028,N,0.052,K,D*35

$GNRMC,221834.00,A,4006.88584,N,08813.63982,W,0.036,,181022,,,D,V*0F

$GNVTG,,T,,M,0.036,N,0.067,K,D*3C

$GNGGA,221834.00,4006.88584,N,08813.63982,W,2,12,0.96,235.3,M,-33.2,M,,0000*76

$GNGSA,A,3,32,03,31,22,26,04,16,46,44,,,,2.28,0.96,2.06,1*07

$GNRMC,221835.00,A,4006.88586,N,08813.63983,W,0.053,,181022,,,D,V*0E

$GNVTG,,T,,M,0.053,N,0.099,K,D*3E

$GNRMC,221836.00,A,4006.88588,N,08813.63984,W,0.019,,181022,,,D,V*0A

$GNVTG,,T,,M,0.019,N,0.035,K,D*36

$GNGGA,221836.00,4006.88588,N,08813.63984,W,2,12,0.89,235.4,M,-33.2,M,,0000*77

$GNGSA,A,3,32,03,31,22,26,04,16,46,44,,,,1.68,0.89,1.42,1*0D

$GNGSA,A,3,,,,,,,,,,,,,1.68,0.89,1.42,2*0B

$GNGSA,A,3,24,03,05,,,,,,,,,,1.68,0.89,1.42,3*0A

$GNRMC,221837.00,A,4006.88589,N,08813.63984,W,0.025,,181022,,,D,V*05

$GNVTG,,T,,M,0.025,N,0.046,K,D*3D

$GNGGA,221837.00,4006.88589,N,08813.63984,W,2,12,0.89,235.4,M,-33.2,M,,0000*77

$GNGSA,A,3,32,03,31,22,26,04,16,46,44,,,,1.68,0.89,1.42,1*0D

$GNGSA,A,3,,,,,,,,,,,,,1.68,0.89,1.42,2*0B

$GNGSA,A,3,24,03,05,,,,,,,,,,1.68,0.89,1.42,3*0A

$GNGSA,A,3,21,26,,,,,,,,,,,1.68,0.89,1.42,4*0A

$GNRMC,221838.00,A,4006.88594,N,08813.63992,W,0.067,,181022,,,D,V*07

$GNVTG,,T,,M,0.067,N,0.125,K,D*3F

$GNGGA,221838.00,4006.88594,N,08813.63992,W,2,12,0.89,235.1,M,-33.2,M,,0000*76

$GNGSA,A,3,32,03,31,22,26,04,16,46,44,,,,1.68,0.89,1.42,1*0D

$GNGSA,A,3,,,,,,,,,,,,,1.68,0.89,1.42,2*0B

$GNGSA,A,3,24,03,05,,,,,,,,,,1.68,0.89,1.42,3*0A

$GNGSA,A,3,21,26,,,,,,,,,,,1.68,0.89,1.42,4*0A

$GPGSV,3,1,11,03,53,256,30,04,37,309,38,09,03,305,,16,48,181,34,1*68

$GPGSV,3,2,11,22,40,109,34,26,72,129,34,29,12,058,15,31,45,055,33,1*60

$GPGSV,3,3,11,32,12,120,14,44,35,220,37,46,28,233,34,1*5F

$GLGSV,1,1,00,1*78

$GNRMC,221839.00,A,4006.88598,N,08813.63999,W,0.028,,181022,,,D,V*0A

$GNVTG,,T,,M,0.028,N,0.052,K,D*35

$GNGGA,221839.00,4006.88598,N,08813.63999,W,2,12,0.89,234.9,M,-33.2,M,,0000*79

$GNGSA,A,3,32,03,31,22,26,04,16,46,44,,,,1.68,0.89,1.42,1*0D

$GNGSA,A,3,,,,,,,,,,,,,1.68,0.89,1.42,2*0B

$GNGSA,A,3,24,03,05,,,,,,,,,,1.68,0.89,1.42,3*0A

$GNGSA,A,3,21,26,,,,,,,,,,,1.68,0.89,1.42,4*0A

$GPGSV,3,1,11,03,53,256,31,04,37,309,38,09,03,305,,16,48,181,34,1*69

$GPGSV,3,2,11,22,40,109,34,26,72,129,34,29,12,058,12,31,45,055,33,1*67

$GPGSV,3,3,11,32,12,120,11,44,35,220,37,46,28,233,34,1*5A

$GLGSV,1,1,00,1*78

$GNRMC,221840.00,A,4006.88596,N,08813.64002,W,0.041,,181022,,,D,V*09

$GNVTG,,T,,M,0.041,N,0.077,K,D*3D

$GNGGA,221840.00,4006.88596,N,08813.64002,W,2,12,0.96,234.7,M,-33.2,M,,0000*75

$GNGSA,A,3,03,31,22,26,04,16,46,44,,,,,2.27,0.96,2.06,1*09

$GNGSA,A,3,,,,,,,,,,,,,2.27,0.96,2.06,2*0E

$GNGSA,A,3,24,03,05,,,,,,,,,,2.27,0.96,2.06,3*0F

$GNGSA,A,3,21,26,,,,,,,,,,,2.27,0.96,2.06,4*0F

$GPGSV,3,1,11,03,53,256,31,04,37,309,36,09,03,305,,16,48,181,33,1*60

$GPGSV,3,2,11,22,40,109,34,26,72,129,34,29,12,058,13,31,45,055,33,1*66

$GPGSV,3,3,11,32,12,120,07,44,35,220,37,46,28,233,33,1*5A

$GLGSV,1,1,00,1*78

$GNRMC,221841.00,A,4006.88598,N,08813.64006,W,0.044,,181022,,,D,V*07

$GNVTG,,T,,M,0.044,N,0.081,K,D*31

$GNRMC,221842.00,A,4006.88603,N,08813.64015,W,0.068,,181022,,,D,V*09

$GNVTG,,T,,M,0.068,N,0.127,K,D*32

$GNGGA,221842.00,4006.88603,N,08813.64015,W,2,12,0.96,234.1,M,-33.2,M,,0000*78

$GNGSA,A,3,03,31,22,26,04,16,46,44,,,,,2.27,0.96,2.06,1*09

$GNGSA,A,3,,,,,,,,,,,,,2.27,0.96,2.06,2*0E

$GNRMC,221843.00,A,4006.88607,N,08813.64018,W,0.053,,181022,,,D,V*09

$GNVTG,,T,,M,0.053,N,0.098,K,D*3F

$GNGGA,221843.00,4006.88607,N,08813.64018,W,2,12,0.96,233.8,M,-33.2,M,,0000*7E

$GNGSA,A,3,03,31,22,26,04,16,46,44,,,,,2.27,0.96,2.06,1*09

$GNGSA,A,3,,,,,,,,,,,,,2.27,0.96,2.06,2*0E

$GNGSA,A,3,24,03,05,,,,,,,,,,2.27,0.96,2.06,3*0F

$GNGSA,A,3,21,26,,,,,,,,,,,2.27,0.96,2.06,4*0F

$GPGSV,3,1,11,03,53,256,34,04,37,309,38,09,03,305,,16,48,181,34,1*6C

$GPGSV,3,2,11,22,40,109,33,26,72,129,35,29,12,058,14,31,45,055,30,1*64

$GPGSV,3,3,11,32,12,120,16,44,35,220,38,46,28,233,34,1*52

$GNRMC,221844.00,A,4006.88612,N,08813.64019,W,0.061,,181022,,,D,V*0A

$GNVTG,,T,,M,0.061,N,0.113,K,D*3C

$GNGGA,221844.00,4006.88612,N,08813.64019,W,2,12,0.96,233.4,M,-33.2,M,,0000*70

$GNGSA,A,3,03,31,22,26,04,16,46,44,,,,,2.27,0.96,2.06,1*09

$GNRMC,221845.00,A,4006.88613,N,08813.64020,W,0.013,,181022,,,D,V*05

$GNVTG,,T,,M,0.013,N,0.024,K,D*3C

$GNRMC,221846.00,A,4006.88616,N,08813.64020,W,0.039,,181022,,,D,V*0B

$GNVTG,,T,,M,0.039,N,0.072,K,D*37

$GNGGA,221846.00,4006.88616,N,08813.64020,W,2,12,0.96,232.9,M,-33.2,M,,0000*70

$GNGSA,A,3,32,03,31,22,26,04,16,46,44,,,,2.27,0.96,2.06,1*08

$GNGSA,A,3,,,,,,,,,,,,,2.27,0.96,2.06,2*0E

$GNGSA,A,3,24,03,05,,,,,,,,,,2.27,0.96,2.06,3*0F

$GNGSA,A,3,21,26,,,,,,,,,,,2.27,0.96,2.06,4*0F

$GPGSV,3,1,11,03,53,256,33,04,37,309,38,09,03,305,,16,48,181,35,1*6A

$GPGSV,3,2,11,22,40,109,32,26,72,129,35,29,12,058,12,31,45,055,31,1*62

$GPGSV,3,3,11,32,12,120,16,44,35,220,37,46,28,233,34,1*5D

$GNRMC,221847.00,A,4006.88618,N,08813.64020,W,0.058,,181022,,,D,V*03

$GNVTG,,T,,M,0.058,N,0.108,K,D*3C

$GNGGA,221847.00,4006.88618,N,08813.64020,W,2,12,0.96,232.7,M,-33.2,M,,0000*71

$GNGSA,A,3,32,03,31,22,26,04,16,46,44,,,,2.27,0.96,2.06,1*08

$GNGSA,A,3,,,,,,,,,,,,,2.27,0.96,2.06,2*0E

$GNGSA,A,3,24,03,05,,,,,,,,,,2.27,0.96,2.06,3*0F

$GNRMC,221848.00,A,4006.88619,N,08813.64019,W,0.054,,181022,,,D,V*0B

$GNVTG,,T,,M,0.054,N,0.100,K,D*38

$GNGGA,221848.00,4006.88619,N,08813.64019,W,2,12,0.91,232.4,M,-33.2,M,,0000*71

$GNGSA,A,3,32,03,31,22,26,04,16,46,44,,,,1.79,0.91,1.54,1*03

$GNGSA,A,3,,,,,,,,,,,,,1.79,0.91,1.54,2*05

$GNGSA,A,3,24,03,05,25,02,,,,,,,,1.79,0.91,1.54,3*01

$GNGSA,A,3,21,26,,,,,,,,,,,1.79,0.91,1.54,4*04

$GNRMC,221849.00,A,4006.88630,N,08813.64022,W,0.051,,181022,,,D,V*0C

$GNVTG,,T,,M,0.051,N,0.094,K,D*31

$GNGGA,221849.00,4006.88630,N,08813.64022,W,2,12,0.91,231.9,M,-33.2,M,,0000*7D

$GNGSA,A,3,32,03,31,22,26,04,16,46,44,,,,1.79,0.91,1.54,1*03

$GNGSA,A,3,,,,,,,,,,,,,1.79,0.91,1.54,2*05

$GNGSA,A,3,24,03,05,25,02,,,,,,,,1.79,0.91,1.54,3*01

$GNGSA,A,3,21,26,,,,,,,,,,,1.79,0.91,1.54,4*04

$GNRMC,221850.00,A,4006.88630,N,08813.64020,W,0.025,,181022,,,D,V*05

$GNVTG,,T,,M,0.025,N,0.045,K,D*3E

$GNGGA,221850.00,4006.88630,N,08813.64020,W,2,12,0.91,231.6,M,-33.2,M,,0000*78

$GNGSA,A,3,32,03,31,22,26,04,16,46,44,,,,1.79,0.91,1.54,1*03

$GNGSA,A,3,,,,,,,,,,,,,1.79,0.91,1.54,2*05

$GNGSA,A,3,24,03,05,25,02,,,,,,,,1.79,0.91,1.54,3*01

$GNGSA,A,3,21,26,,,,,,,,,,,1.79,0.91,1.54,4*04

$GNRMC,221851.00,A,4006.88623,N,08813.64016,W,0.182,,181022,,,D,V*0F

$GNVTG,,T,,M,0.182,N,0.338,K,D*3B

$GNGGA,221851.00,4006.88623,N,08813.64016,W,2,12,0.91,231.6,M,-33.2,M,,0000*7E

$GNGSA,A,3,32,03,31,22,26,04,16,46,44,,,,1.79,0.91,1.54,1*03

$GNGSA,A,3,,,,,,,,,,,,,1.79,0.91,1.54,2*05

$GNGSA,A,3,24,03,05,25,02,,,,,,,,1.79,0.91,1.54,3*01

$GNGSA,A,3,21,26,,,,,,,,,,,1.79,0.91,1.54,4*04

$GPGSV,3,1,11,03,53,256,35,04,37,309,30,09,03,305,,16,48,181,30,1*61

$GNRMC,221852.00,A,4006.88622,N,08813.64013,W,0.042,,181022,,,D,V*05

$GNVTG,,T,,M,0.042,N,0.079,K,D*30

$GNGGA,221852.00,4006.88622,N,08813.64013,W,2,12,0.91,231.3,M,-33.2,M,,0000*7C

$GNGSA,A,3,32,03,31,22,26,04,16,46,44,,,,1.79,0.91,1.54,1*03

$GNGSA,A,3,,,,,,,,,,,,,1.79,0.91,1.54,2*05

$GNGSA,A,3,24,03,05,25,02,,,,,,,,1.79,0.91,1.54,3*01

$GNGSA,A,3,21,26,,,,,,,,,,,1.79,0.91,1.54,4*04

$GNRMC,221853.00,A,4006.88625,N,08813.64012,W,0.083,,181022,,,D,V*0F

$GNVTG,,T,,M,0.083,N,0.153,K,D*34

$GNGGA,221853.00,4006.88625,N,08813.64012,W,2,12,0.91,231.0,M,-33.2,M,,0000*78

$GNRMC,221854.00,A,4006.88621,N,08813.64009,W,0.047,,181022,,,D,V*0E

$GNVTG,,T,,M,0.047,N,0.087,K,D*34

$GNRMC,221855.00,A,4006.88620,N,08813.64006,W,0.054,,181022,,,D,V*03

$GNVTG,,T,,M,0.054,N,0.099,K,D*39

$GNGGA,221855.00,4006.88620,N,08813.64006,W,2,12,0.91,230.8,M,-33.2,M,,0000*77

$GNGSA,A,3,32,03,31,22,26,04,16,46,44,,,,1.79,0.91,1.54,1*03

